{"total_count": 129, "results": [{"number": 127, "name": "127-P+R BAS DE CHANTENAY", "address": "P+R Bas Chantenay, boulevard de Chantenay 44100 NANTES", "position": {"lon": -1.59119, "lat": 47.195955}, "banking": "False", "bonus": "False", "status": "OPEN", "contract_name": "nantes", "bike_stands": 15, "available_bike_stands": 11, "available_bikes": 4, "last_update": "2025-11-07T13:48:58+00:00"}, {"number": 79, "name": "079-MALAKOFF", "address": "15, quai de Malakoff", "position": {"lon": -1.536954, "lat": 47.213395}, "banking": "False", "bonus": "False", "status": "OPEN", "contract_name": "nantes", "bike_stands": 15, "available_bike_stands": 6, "available_bikes": 9, "last_update": "2025-11-07T13:48:02+00:00"}, {"number": 75, "name": "075-LAMORICI\u00c8RE", "address": "14 bis, rue Lamorici\u00e8re - Place Beaumanoir", "position": {"lon": -1.57136936022191, "lat": 47.212308958847}, "banking": "False", "bonus": "False", "status": "OPEN", "contract_name": "nantes", "bike_stands": 15, "available_bike_stands": 13, "available_bikes": 2, "last_update": "2025-11-07T13:48:09+00:00"}, {"number": 99, "name": "099-ST JACQUES", "address": "Rue Saint Jacques", "position": {"lon": -1.5365406634647, "lat": 47.1958989090141}, "banking": "False", "bonus": "False", "status": "OPEN", "contract_name": "nantes", "bike_stands": 15, "available_bike_stands": 10, "available_bikes": 5, "last_update": "2025-11-07T13:49:03+00:00"}, {"number": 50, "name": "050-CH\u00c2TEAU", "address": "7, rue des Etats", "position": {"lon": -1.55022624256337, "lat": 47.2151496951626}, "banking": "True", "bonus": "False", "status": "OPEN", "contract_name": "nantes", "bike_stands": 16, "available_bike_stands": 15, "available_bikes": 1, "last_update": "2025-11-07T13:48:02+00:00"}, {"number": 125, "name": "125-PLACIS", "address": "Avenue de la Martelli\u00e8re - SAINT-S\u00c9BASTIEN-SUR-LOIRE", "position": {"lon": -1.520481, "lat": 47.199378}, "banking": "False", "bonus": "False", "status": "OPEN", "contract_name": "nantes", "bike_stands": 18, "available_bike_stands": 11, "available_bikes": 7, "last_update": "2025-11-07T13:47:52+00:00"}, {"number": 54, "name": "054-CIT\u00c9 INTERNATIONALE DES CONGR\u00c8S", "address": "2, rue de Jemmapes - 2, avenue Jean-Claude Bonduelle", "position": {"lon": -1.54495254166858, "lat": 47.2131800855278}, "banking": "True", "bonus": "False", "status": "OPEN", "contract_name": "nantes", "bike_stands": 34, "available_bike_stands": 21, "available_bikes": 13, "last_update": "2025-11-07T13:48:07+00:00"}, {"number": 14, "name": "014-SAINT F\u00c9LIX", "address": "35, Boulevard Amiral Courbet", "position": {"lon": -1.556133, "lat": 47.230334}, "banking": "False", "bonus": "False", "status": "OPEN", "contract_name": "nantes", "bike_stands": 14, "available_bike_stands": 6, "available_bikes": 8, "last_update": "2025-11-07T13:48:32+00:00"}, {"number": 123, "name": "123-TRARIEUX", "address": "3, place Gabriel Trarieux", "position": {"lon": -1.522334, "lat": 47.225957}, "banking": "False", "bonus": "False", "status": "OPEN", "contract_name": "nantes", "bike_stands": 20, "available_bike_stands": 8, "available_bikes": 12, "last_update": "2025-11-07T13:47:11+00:00"}, {"number": 18, "name": "018-VIARME", "address": "23, place Viarme", "position": {"lon": -1.56330836686976, "lat": 47.2214293389855}, "banking": "False", "bonus": "False", "status": "OPEN", "contract_name": "nantes", "bike_stands": 14, "available_bike_stands": 5, "available_bikes": 9, "last_update": "2025-11-07T13:46:26+00:00"}, {"number": 91, "name": "091-ROND POINT DE VANNES", "address": "65, boulevard Lelasseur", "position": {"lon": -1.57211457799373, "lat": 47.2295806053692}, "banking": "False", "bonus": "False", "status": "OPEN", "contract_name": "nantes", "bike_stands": 15, "available_bike_stands": 9, "available_bikes": 6, "last_update": "2025-11-07T13:46:22+00:00"}, {"number": 116, "name": "116-LIBERT\u00c9", "address": "Rond-Point de Louisiane", "position": {"lon": -1.588395, "lat": 47.198124}, "banking": "False", "bonus": "False", "status": "OPEN", "contract_name": "nantes", "bike_stands": 20, "available_bike_stands": 19, "available_bikes": 1, "last_update": "2025-11-07T13:47:16+00:00"}, {"number": 32, "name": "032-FOCH", "address": "Place Foch", "position": {"lon": -1.550185, "lat": 47.2192484}, "banking": "True", "bonus": "False", "status": "OPEN", "contract_name": "nantes", "bike_stands": 14, "available_bike_stands": 14, "available_bikes": 0, "last_update": "2025-11-07T13:46:14+00:00"}, {"number": 12, "name": "012-DELORME", "address": "1, boulevard Gabriel Guist'Hau - Place Delorme", "position": {"lon": -1.56390067346586, "lat": 47.2151581886857}, "banking": "True", "bonus": "False", "status": "OPEN", "contract_name": "nantes", "bike_stands": 20, "available_bike_stands": 11, "available_bikes": 9, "last_update": "2025-11-07T13:46:11+00:00"}, {"number": 4, "name": "004-MOULIN", "address": "18, rue du Moulin", "position": {"lon": -1.5543847138777, "lat": 47.2166675820152}, "banking": "False", "bonus": "False", "status": "OPEN", "contract_name": "nantes", "bike_stands": 12, "available_bike_stands": 10, "available_bikes": 2, "last_update": "2025-11-07T13:46:00+00:00"}, {"number": 9, "name": "009-GU\u00c9PIN", "address": "Angle rue du Calvaire / Rue Gu\u00e9pin", "position": {"lon": -1.55901748516744, "lat": 47.2158145871395}, "banking": "False", "bonus": "False", "status": "OPEN", "contract_name": "nantes", "bike_stands": 14, "available_bike_stands": 9, "available_bikes": 5, "last_update": "2025-11-07T13:46:58+00:00"}, {"number": 68, "name": "068-LIVET", "address": "65, rue Dufour", "position": {"lon": -1.54521243421509, "lat": 47.2240678794875}, "banking": "True", "bonus": "False", "status": "OPEN", "contract_name": "nantes", "bike_stands": 15, "available_bike_stands": 11, "available_bikes": 4, "last_update": "2025-11-07T13:45:58+00:00"}, {"number": 113, "name": "113-MAIRIE DE REZ\u00c9", "address": "Place Jean-Baptiste Daviais - REZ\u00c9", "position": {"lon": -1.569362, "lat": 47.191117}, "banking": "False", "bonus": "False", "status": "OPEN", "contract_name": "nantes", "bike_stands": 21, "available_bike_stands": 13, "available_bikes": 8, "last_update": "2025-11-07T13:45:32+00:00"}, {"number": 47, "name": "047-MARTYRS NANTAIS", "address": "1, boulevard des Martyrs Nantais de la R\u00e9sistance", "position": {"lon": -1.548169, "lat": 47.206933}, "banking": "True", "bonus": "False", "status": "OPEN", "contract_name": "nantes", "bike_stands": 27, "available_bike_stands": 13, "available_bikes": 14, "last_update": "2025-11-07T13:50:08+00:00"}, {"number": 21, "name": "021-TALENSAC SUD", "address": "6, rue Talensac", "position": {"lon": -1.55647633932779, "lat": 47.2211433291291}, "banking": "False", "bonus": "False", "status": "OPEN", "contract_name": "nantes", "bike_stands": 16, "available_bike_stands": 1, "available_bikes": 15, "last_update": "2025-11-07T13:51:07+00:00"}]}