{"total_count": 129, "results": [{"number": 36, "name": "036-ALGER", "address": "10, rue d'Alger", "position": {"lon": -1.567368, "lat": 47.210549}, "banking": "False", "bonus": "False", "status": "OPEN", "contract_name": "nantes", "bike_stands": 15, "available_bike_stands": 4, "available_bikes": 10, "last_update": "2025-12-04T07:41:11+00:00"}, {"number": 51, "name": "051-TABARLY", "address": "5, boulevard de Berlin", "position": {"lon": -1.52973588598036, "lat": 47.2141946314965}, "banking": "False", "bonus": "False", "status": "OPEN", "contract_name": "nantes", "bike_stands": 20, "available_bike_stands": 9, "available_bikes": 11, "last_update": "2025-12-04T07:41:09+00:00"}, {"number": 118, "name": "118-\u00c9GALIT\u00c9", "address": "Boulevard L\u00e9on Jouhaux", "position": {"lon": -1.589002, "lat": 47.209661}, "banking": "False", "bonus": "False", "status": "OPEN", "contract_name": "nantes", "bike_stands": 14, "available_bike_stands": 6, "available_bikes": 8, "last_update": "2025-12-04T07:42:07+00:00"}, {"number": 21, "name": "021-TALENSAC SUD", "address": "6, rue Talensac", "position": {"lon": -1.55647633932779, "lat": 47.2211433291291}, "banking": "False", "bonus": "False", "status": "OPEN", "contract_name": "nantes", "bike_stands": 16, "available_bike_stands": 9, "available_bikes": 7, "last_update": "2025-12-04T07:41:40+00:00"}, {"number": 12, "name": "012-DELORME", "address": "1, boulevard Gabriel Guist'Hau - Place Delorme", "position": {"lon": -1.56390067346586, "lat": 47.2151581886857}, "banking": "True", "bonus": "False", "status": "OPEN", "contract_name": "nantes", "bike_stands": 20, "available_bike_stands": 20, "available_bikes": 0, "last_update": "2025-12-04T07:42:27+00:00"}, {"number": 88, "name": "088-MELLINET", "address": "1, boulevard Allard - Place G\u00e9n\u00e9ral Mellinet", "position": {"lon": -1.57717541432178, "lat": 47.2115010701178}, "banking": "False", "bonus": "False", "status": "OPEN", "contract_name": "nantes", "bike_stands": 15, "available_bike_stands": 8, "available_bikes": 7, "last_update": "2025-12-04T07:43:13+00:00"}, {"number": 2, "name": "002-H\u00d4TEL DE VILLE", "address": "29, rue de Strasbourg", "position": {"lon": -1.55348429039295, "lat": 47.2185718130915}, "banking": "False", "bonus": "False", "status": "OPEN", "contract_name": "nantes", "bike_stands": 20, "available_bike_stands": 9, "available_bikes": 11, "last_update": "2025-12-04T07:42:03+00:00"}, {"number": 18, "name": "018-VIARME", "address": "23, place Viarme", "position": {"lon": -1.56330836686976, "lat": 47.2214293389855}, "banking": "False", "bonus": "False", "status": "OPEN", "contract_name": "nantes", "bike_stands": 14, "available_bike_stands": 5, "available_bikes": 9, "last_update": "2025-12-04T07:42:49+00:00"}, {"number": 91, "name": "091-ROND POINT DE VANNES", "address": "65, boulevard Lelasseur", "position": {"lon": -1.57211457799373, "lat": 47.2295806053692}, "banking": "False", "bonus": "False", "status": "OPEN", "contract_name": "nantes", "bike_stands": 15, "available_bike_stands": 5, "available_bikes": 10, "last_update": "2025-12-04T07:41:46+00:00"}, {"number": 116, "name": "116-LIBERT\u00c9", "address": "Rond-Point de Louisiane", "position": {"lon": -1.588395, "lat": 47.198124}, "banking": "False", "bonus": "False", "status": "OPEN", "contract_name": "nantes", "bike_stands": 20, "available_bike_stands": 10, "available_bikes": 9, "last_update": "2025-12-04T07:43:25+00:00"}, {"number": 14, "name": "014-SAINT F\u00c9LIX", "address": "35, Boulevard Amiral Courbet", "position": {"lon": -1.556133, "lat": 47.230334}, "banking": "False", "bonus": "False", "status": "OPEN", "contract_name": "nantes", "bike_stands": 14, "available_bike_stands": 4, "available_bikes": 10, "last_update": "2025-12-04T07:43:41+00:00"}, {"number": 121, "name": "121-VICTOR RICHARD", "address": "12, place Victor Richard", "position": {"lon": -1.533329, "lat": 47.228614}, "banking": "False", "bonus": "False", "status": "OPEN", "contract_name": "nantes", "bike_stands": 15, "available_bike_stands": 11, "available_bikes": 4, "last_update": "2025-12-04T07:44:52+00:00"}, {"number": 113, "name": "113-MAIRIE DE REZ\u00c9", "address": "Place Jean-Baptiste Daviais - REZ\u00c9", "position": {"lon": -1.569362, "lat": 47.191117}, "banking": "False", "bonus": "False", "status": "OPEN", "contract_name": "nantes", "bike_stands": 21, "available_bike_stands": 15, "available_bikes": 6, "last_update": "2025-12-04T07:44:07+00:00"}, {"number": 110, "name": "110-AUDITORIUM", "address": "1, avenue de Bretagne - REZ\u00c9", "position": {"lon": -1.554025, "lat": 47.185402}, "banking": "False", "bonus": "False", "status": "OPEN", "contract_name": "nantes", "bike_stands": 20, "available_bike_stands": 19, "available_bikes": 1, "last_update": "2025-12-04T07:44:59+00:00"}, {"number": 123, "name": "123-TRARIEUX", "address": "3, place Gabriel Trarieux", "position": {"lon": -1.522334, "lat": 47.225957}, "banking": "False", "bonus": "False", "status": "OPEN", "contract_name": "nantes", "bike_stands": 20, "available_bike_stands": 18, "available_bikes": 2, "last_update": "2025-12-04T07:43:59+00:00"}, {"number": 79, "name": "079-MALAKOFF", "address": "15, quai de Malakoff", "position": {"lon": -1.536954, "lat": 47.213395}, "banking": "False", "bonus": "False", "status": "OPEN", "contract_name": "nantes", "bike_stands": 15, "available_bike_stands": 9, "available_bikes": 6, "last_update": "2025-12-04T07:44:54+00:00"}, {"number": 99, "name": "099-ST JACQUES", "address": "Rue Saint Jacques", "position": {"lon": -1.5365406634647, "lat": 47.1958989090141}, "banking": "False", "bonus": "False", "status": "OPEN", "contract_name": "nantes", "bike_stands": 15, "available_bike_stands": 11, "available_bikes": 4, "last_update": "2025-12-04T07:46:50+00:00"}, {"number": 108, "name": "108-BONNE GARDE", "address": "Face 97, rue Bonne Garde", "position": {"lon": -1.532105, "lat": 47.197217}, "banking": "False", "bonus": "False", "status": "OPEN", "contract_name": "nantes", "bike_stands": 24, "available_bike_stands": 19, "available_bikes": 5, "last_update": "2025-12-04T07:46:40+00:00"}, {"number": 120, "name": "120-ROND-POINT DE PARIS", "address": "16, boulevard Jules Verne", "position": {"lon": -1.534981, "lat": 47.234853}, "banking": "True", "bonus": "False", "status": "OPEN", "contract_name": "nantes", "bike_stands": 30, "available_bike_stands": 18, "available_bikes": 12, "last_update": "2025-12-04T07:45:36+00:00"}, {"number": 125, "name": "125-PLACIS", "address": "Avenue de la Martelli\u00e8re - SAINT-S\u00c9BASTIEN-SUR-LOIRE", "position": {"lon": -1.520481, "lat": 47.199378}, "banking": "False", "bonus": "False", "status": "OPEN", "contract_name": "nantes", "bike_stands": 18, "available_bike_stands": 7, "available_bikes": 11, "last_update": "2025-12-04T07:45:55+00:00"}]}