{"total_count": 129, "results": [{"number": 1011, "name": "01011 - BORNE TEST NANTES 1", "address": "Borne test 1", "position": {"lon": -1.5575, "lat": 47.19504}, "banking": "False", "bonus": "False", "status": "OPEN", "contract_name": "nantes", "bike_stands": 0, "available_bike_stands": 0, "available_bikes": 0, "last_update": "2022-05-23T14:41:50+00:00"}, {"number": 109, "name": "109-CLOS TOREAU", "address": "Face 31, boulevard Emile Gabory", "position": {"lon": -1.529313, "lat": 47.19426}, "banking": "False", "bonus": "False", "status": "OPEN", "contract_name": "nantes", "bike_stands": 21, "available_bike_stands": 14, "available_bikes": 7, "last_update": "2025-12-04T09:07:35+00:00"}, {"number": 112, "name": "112-TRENTEMOULT SABLIERES", "address": "Rue de la Californie, 44400 REZE", "position": {"lon": -1.585519, "lat": 47.190767}, "banking": "False", "bonus": "False", "status": "OPEN", "contract_name": "nantes", "bike_stands": 15, "available_bike_stands": 9, "available_bikes": 6, "last_update": "2025-12-04T09:08:10+00:00"}, {"number": 106, "name": "106-GARENNES", "address": "2, rue des Garennes", "position": {"lon": -1.5787, "lat": 47.202127}, "banking": "False", "bonus": "False", "status": "OPEN", "contract_name": "nantes", "bike_stands": 15, "available_bike_stands": 5, "available_bikes": 10, "last_update": "2025-12-04T09:11:20+00:00"}, {"number": 97, "name": "097-SAINT DONATIEN", "address": "Place du 51\u00e8me R\u00e9giment d'Artillerie", "position": {"lon": -1.54029259428922, "lat": 47.2290880870929}, "banking": "False", "bonus": "False", "status": "OPEN", "contract_name": "nantes", "bike_stands": 19, "available_bike_stands": 10, "available_bikes": 9, "last_update": "2025-12-04T09:10:33+00:00"}, {"number": 41, "name": "041-BRUNELI\u00c8RE", "address": "88, quai de la Fosse", "position": {"lon": -1.56823, "lat": 47.208905}, "banking": "False", "bonus": "False", "status": "OPEN", "contract_name": "nantes", "bike_stands": 18, "available_bike_stands": 3, "available_bikes": 15, "last_update": "2025-12-04T09:11:16+00:00"}, {"number": 111, "name": "111-DIDEROT", "address": "Avenue de la Vend\u00e9e - Face \u00e0 l'Espace Diderot - REZ\u00c9", "position": {"lon": -1.562532, "lat": 47.184491}, "banking": "False", "bonus": "False", "status": "OPEN", "contract_name": "nantes", "bike_stands": 21, "available_bike_stands": 20, "available_bikes": 1, "last_update": "2025-12-04T09:11:07+00:00"}, {"number": 70, "name": "070-GARE DE NANTES SUD", "address": "Quai de Malakoff - Canal Saint-F\u00e9lix", "position": {"lon": -1.542844, "lat": 47.215505}, "banking": "True", "bonus": "False", "status": "OPEN", "contract_name": "nantes", "bike_stands": 70, "available_bike_stands": 60, "available_bikes": 9, "last_update": "2025-12-04T09:11:15+00:00"}, {"number": 60, "name": "060-GARE DE NANTES NORD", "address": "27 boulevard Stalingrad", "position": {"lon": -1.543517, "lat": 47.217212}, "banking": "True", "bonus": "False", "status": "OPEN", "contract_name": "nantes", "bike_stands": 40, "available_bike_stands": 40, "available_bikes": 0, "last_update": "2025-12-04T09:09:36+00:00"}, {"number": 66, "name": "066-CHANZY", "address": "Face au 23, avenue Chanzy", "position": {"lon": -1.54799992590737, "lat": 47.2254298853335}, "banking": "False", "bonus": "False", "status": "OPEN", "contract_name": "nantes", "bike_stands": 15, "available_bike_stands": 13, "available_bikes": 2, "last_update": "2025-12-04T09:12:09+00:00"}, {"number": 72, "name": "072-BELLAMY-GU\u00c9 MOREAU", "address": "138, rue Paul Bellamy", "position": {"lon": -1.56180639301113, "lat": 47.2286256905746}, "banking": "False", "bonus": "False", "status": "OPEN", "contract_name": "nantes", "bike_stands": 15, "available_bike_stands": 7, "available_bikes": 8, "last_update": "2025-12-04T09:13:14+00:00"}, {"number": 26, "name": "026-GUIST'HAU SUD", "address": "30, boulevard Gabriel Guist'Hau - Rue Harouys", "position": {"lon": -1.56700452626517, "lat": 47.2168279599745}, "banking": "False", "bonus": "False", "status": "OPEN", "contract_name": "nantes", "bike_stands": 15, "available_bike_stands": 6, "available_bikes": 9, "last_update": "2025-12-04T09:11:40+00:00"}, {"number": 52, "name": "052-BACO", "address": "8, all\u00e9e Baco", "position": {"lon": -1.54875055574198, "lat": 47.2143275245891}, "banking": "False", "bonus": "False", "status": "OPEN", "contract_name": "nantes", "bike_stands": 15, "available_bike_stands": 14, "available_bikes": 1, "last_update": "2025-12-04T09:13:06+00:00"}, {"number": 101, "name": "101-PIRMIL", "address": "13, rue Esnoul des Ch\u00e2telets", "position": {"lon": -1.54156809120326, "lat": 47.1965313642396}, "banking": "True", "bonus": "False", "status": "OPEN", "contract_name": "nantes", "bike_stands": 28, "available_bike_stands": 18, "available_bikes": 10, "last_update": "2025-12-04T09:12:58+00:00"}, {"number": 38, "name": "038-RICORDEAU", "address": "Place Alexis-Ricordeau - Chauss\u00e9e de la Madeleine", "position": {"lon": -1.55304912932047, "lat": 47.2121084631418}, "banking": "True", "bonus": "False", "status": "OPEN", "contract_name": "nantes", "bike_stands": 40, "available_bike_stands": 5, "available_bikes": 35, "last_update": "2025-12-04T09:14:05+00:00"}, {"number": 94, "name": "094-PETIT PORT", "address": "Boulevard du Petit Port - place du 8 mai 1945", "position": {"lon": -1.55634461016798, "lat": 47.2432639149755}, "banking": "False", "bonus": "False", "status": "OPEN", "contract_name": "nantes", "bike_stands": 20, "available_bike_stands": 13, "available_bikes": 7, "last_update": "2025-12-04T09:14:12+00:00"}, {"number": 84, "name": "084-R\u00c9GION", "address": "Rue de la Loire - place Gaston Defferre", "position": {"lon": -1.52593345192508, "lat": 47.2107421421814}, "banking": "False", "bonus": "False", "status": "OPEN", "contract_name": "nantes", "bike_stands": 22, "available_bike_stands": 10, "available_bikes": 12, "last_update": "2025-12-04T09:15:21+00:00"}, {"number": 117, "name": "117-MAIRIE DE CHANTENAY", "address": "Place de la Libert\u00e9", "position": {"lon": -1.58785, "lat": 47.20656}, "banking": "False", "bonus": "False", "status": "OPEN", "contract_name": "nantes", "bike_stands": 15, "available_bike_stands": 4, "available_bikes": 10, "last_update": "2025-12-04T09:14:43+00:00"}, {"number": 19, "name": "019-SAINT SIMILIEN", "address": "1, place Saint Similien", "position": {"lon": -1.55892089047478, "lat": 47.21985446733}, "banking": "False", "bonus": "False", "status": "OPEN", "contract_name": "nantes", "bike_stands": 15, "available_bike_stands": 5, "available_bikes": 10, "last_update": "2025-12-04T09:15:00+00:00"}, {"number": 87, "name": "087-ANATOLE FRANCE", "address": "41, rue Alexandre Dumas - Place Anatole France", "position": {"lon": -1.57137357811241, "lat": 47.2236048153991}, "banking": "False", "bonus": "False", "status": "OPEN", "contract_name": "nantes", "bike_stands": 15, "available_bike_stands": 4, "available_bikes": 10, "last_update": "2025-12-04T09:14:09+00:00"}]}