{"total_count": 129, "results": [{"number": 116, "name": "116-LIBERT\u00c9", "address": "Rond-Point de Louisiane", "position": {"lon": -1.588395, "lat": 47.198124}, "banking": "False", "bonus": "False", "status": "OPEN", "contract_name": "nantes", "bike_stands": 20, "available_bike_stands": 10, "available_bikes": 9, "last_update": "2025-12-04T08:01:31+00:00"}, {"number": 18, "name": "018-VIARME", "address": "23, place Viarme", "position": {"lon": -1.56330836686976, "lat": 47.2214293389855}, "banking": "False", "bonus": "False", "status": "OPEN", "contract_name": "nantes", "bike_stands": 14, "available_bike_stands": 2, "available_bikes": 12, "last_update": "2025-12-04T08:02:56+00:00"}, {"number": 91, "name": "091-ROND POINT DE VANNES", "address": "65, boulevard Lelasseur", "position": {"lon": -1.57211457799373, "lat": 47.2295806053692}, "banking": "False", "bonus": "False", "status": "OPEN", "contract_name": "nantes", "bike_stands": 15, "available_bike_stands": 6, "available_bikes": 9, "last_update": "2025-12-04T08:01:57+00:00"}, {"number": 118, "name": "118-\u00c9GALIT\u00c9", "address": "Boulevard L\u00e9on Jouhaux", "position": {"lon": -1.589002, "lat": 47.209661}, "banking": "False", "bonus": "False", "status": "OPEN", "contract_name": "nantes", "bike_stands": 14, "available_bike_stands": 7, "available_bikes": 7, "last_update": "2025-12-04T08:02:14+00:00"}, {"number": 32, "name": "032-FOCH", "address": "Place Foch", "position": {"lon": -1.550185, "lat": 47.2192484}, "banking": "True", "bonus": "False", "status": "OPEN", "contract_name": "nantes", "bike_stands": 14, "available_bike_stands": 14, "available_bikes": 0, "last_update": "2025-12-04T08:02:14+00:00"}, {"number": 17, "name": "017-SAINTE \u00c9LISABETH", "address": "4, place Sainte Elisabeth", "position": {"lon": -1.56157014764171, "lat": 47.2192139526135}, "banking": "False", "bonus": "False", "status": "OPEN", "contract_name": "nantes", "bike_stands": 14, "available_bike_stands": 3, "available_bikes": 11, "last_update": "2025-12-04T08:02:35+00:00"}, {"number": 21, "name": "021-TALENSAC SUD", "address": "6, rue Talensac", "position": {"lon": -1.55647633932779, "lat": 47.2211433291291}, "banking": "False", "bonus": "False", "status": "OPEN", "contract_name": "nantes", "bike_stands": 16, "available_bike_stands": 9, "available_bikes": 7, "last_update": "2025-12-04T08:01:51+00:00"}, {"number": 11, "name": "011-CALVAIRE", "address": "8, rue du Calvaire - Place des Volontaires de la D\u00e9fense Passive", "position": {"lon": -1.56067528370012, "lat": 47.2155789424271}, "banking": "False", "bonus": "False", "status": "OPEN", "contract_name": "nantes", "bike_stands": 15, "available_bike_stands": 10, "available_bikes": 5, "last_update": "2025-12-04T08:02:06+00:00"}, {"number": 125, "name": "125-PLACIS", "address": "Avenue de la Martelli\u00e8re - SAINT-S\u00c9BASTIEN-SUR-LOIRE", "position": {"lon": -1.520481, "lat": 47.199378}, "banking": "False", "bonus": "False", "status": "OPEN", "contract_name": "nantes", "bike_stands": 18, "available_bike_stands": 8, "available_bikes": 10, "last_update": "2025-12-04T08:03:34+00:00"}, {"number": 79, "name": "079-MALAKOFF", "address": "15, quai de Malakoff", "position": {"lon": -1.536954, "lat": 47.213395}, "banking": "False", "bonus": "False", "status": "OPEN", "contract_name": "nantes", "bike_stands": 15, "available_bike_stands": 10, "available_bikes": 5, "last_update": "2025-12-04T08:05:05+00:00"}, {"number": 75, "name": "075-LAMORICI\u00c8RE", "address": "14 bis, rue Lamorici\u00e8re - Place Beaumanoir", "position": {"lon": -1.57136936022191, "lat": 47.212308958847}, "banking": "False", "bonus": "False", "status": "OPEN", "contract_name": "nantes", "bike_stands": 15, "available_bike_stands": 8, "available_bikes": 7, "last_update": "2025-12-04T08:06:17+00:00"}, {"number": 50, "name": "050-CH\u00c2TEAU", "address": "7, rue des Etats", "position": {"lon": -1.55022624256337, "lat": 47.2151496951626}, "banking": "True", "bonus": "False", "status": "OPEN", "contract_name": "nantes", "bike_stands": 16, "available_bike_stands": 4, "available_bikes": 12, "last_update": "2025-12-04T08:05:31+00:00"}, {"number": 120, "name": "120-ROND-POINT DE PARIS", "address": "16, boulevard Jules Verne", "position": {"lon": -1.534981, "lat": 47.234853}, "banking": "True", "bonus": "False", "status": "OPEN", "contract_name": "nantes", "bike_stands": 30, "available_bike_stands": 18, "available_bikes": 12, "last_update": "2025-12-04T08:05:22+00:00"}, {"number": 54, "name": "054-CIT\u00c9 INTERNATIONALE DES CONGR\u00c8S", "address": "2, rue de Jemmapes - 2, avenue Jean-Claude Bonduelle", "position": {"lon": -1.54495254166858, "lat": 47.2131800855278}, "banking": "True", "bonus": "False", "status": "OPEN", "contract_name": "nantes", "bike_stands": 34, "available_bike_stands": 23, "available_bikes": 11, "last_update": "2025-12-04T08:04:35+00:00"}, {"number": 14, "name": "014-SAINT F\u00c9LIX", "address": "35, Boulevard Amiral Courbet", "position": {"lon": -1.556133, "lat": 47.230334}, "banking": "False", "bonus": "False", "status": "OPEN", "contract_name": "nantes", "bike_stands": 14, "available_bike_stands": 4, "available_bikes": 10, "last_update": "2025-12-04T08:03:49+00:00"}, {"number": 121, "name": "121-VICTOR RICHARD", "address": "12, place Victor Richard", "position": {"lon": -1.533329, "lat": 47.228614}, "banking": "False", "bonus": "False", "status": "OPEN", "contract_name": "nantes", "bike_stands": 15, "available_bike_stands": 11, "available_bikes": 4, "last_update": "2025-12-04T08:05:01+00:00"}, {"number": 2, "name": "002-H\u00d4TEL DE VILLE", "address": "29, rue de Strasbourg", "position": {"lon": -1.55348429039295, "lat": 47.2185718130915}, "banking": "False", "bonus": "False", "status": "OPEN", "contract_name": "nantes", "bike_stands": 20, "available_bike_stands": 10, "available_bikes": 10, "last_update": "2025-12-04T08:05:58+00:00"}, {"number": 74, "name": "074-CANCLAUX", "address": "8, place Canclaux", "position": {"lon": -1.57492461719297, "lat": 47.2143336608893}, "banking": "False", "bonus": "False", "status": "OPEN", "contract_name": "nantes", "bike_stands": 15, "available_bike_stands": 4, "available_bikes": 11, "last_update": "2025-12-04T08:04:09+00:00"}, {"number": 113, "name": "113-MAIRIE DE REZ\u00c9", "address": "Place Jean-Baptiste Daviais - REZ\u00c9", "position": {"lon": -1.569362, "lat": 47.191117}, "banking": "False", "bonus": "False", "status": "OPEN", "contract_name": "nantes", "bike_stands": 21, "available_bike_stands": 15, "available_bikes": 6, "last_update": "2025-12-04T08:04:17+00:00"}, {"number": 123, "name": "123-TRARIEUX", "address": "3, place Gabriel Trarieux", "position": {"lon": -1.522334, "lat": 47.225957}, "banking": "False", "bonus": "False", "status": "OPEN", "contract_name": "nantes", "bike_stands": 20, "available_bike_stands": 18, "available_bikes": 2, "last_update": "2025-12-04T08:04:08+00:00"}]}