{"total_count": 129, "results": [{"number": 51, "name": "051-TABARLY", "address": "5, boulevard de Berlin", "position": {"lon": -1.52973588598036, "lat": 47.2141946314965}, "banking": "False", "bonus": "False", "status": "OPEN", "contract_name": "nantes", "bike_stands": 20, "available_bike_stands": 9, "available_bikes": 11, "last_update": "2025-12-04T08:11:19+00:00"}, {"number": 2, "name": "002-H\u00d4TEL DE VILLE", "address": "29, rue de Strasbourg", "position": {"lon": -1.55348429039295, "lat": 47.2185718130915}, "banking": "False", "bonus": "False", "status": "OPEN", "contract_name": "nantes", "bike_stands": 20, "available_bike_stands": 10, "available_bikes": 10, "last_update": "2025-12-04T08:12:17+00:00"}, {"number": 27, "name": "027-GUIST'HAU NORD", "address": "42, boulevard Gabriel Guist'Hau", "position": {"lon": -1.56917188330244, "lat": 47.2179298163251}, "banking": "False", "bonus": "False", "status": "OPEN", "contract_name": "nantes", "bike_stands": 15, "available_bike_stands": 1, "available_bikes": 14, "last_update": "2025-12-04T08:12:42+00:00"}, {"number": 91, "name": "091-ROND POINT DE VANNES", "address": "65, boulevard Lelasseur", "position": {"lon": -1.57211457799373, "lat": 47.2295806053692}, "banking": "False", "bonus": "False", "status": "OPEN", "contract_name": "nantes", "bike_stands": 15, "available_bike_stands": 6, "available_bikes": 9, "last_update": "2025-12-04T08:12:01+00:00"}, {"number": 116, "name": "116-LIBERT\u00c9", "address": "Rond-Point de Louisiane", "position": {"lon": -1.588395, "lat": 47.198124}, "banking": "False", "bonus": "False", "status": "OPEN", "contract_name": "nantes", "bike_stands": 20, "available_bike_stands": 10, "available_bikes": 9, "last_update": "2025-12-04T08:11:36+00:00"}, {"number": 16, "name": "016-\u00c9DOUARD NORMAND", "address": "Face au 7, place Edouard Normand", "position": {"lon": -1.56341948405375, "lat": 47.2190275447384}, "banking": "False", "bonus": "False", "status": "OPEN", "contract_name": "nantes", "bike_stands": 15, "available_bike_stands": 8, "available_bikes": 7, "last_update": "2025-12-04T08:11:30+00:00"}, {"number": 121, "name": "121-VICTOR RICHARD", "address": "12, place Victor Richard", "position": {"lon": -1.533329, "lat": 47.228614}, "banking": "False", "bonus": "False", "status": "OPEN", "contract_name": "nantes", "bike_stands": 15, "available_bike_stands": 12, "available_bikes": 3, "last_update": "2025-12-04T08:15:08+00:00"}, {"number": 74, "name": "074-CANCLAUX", "address": "8, place Canclaux", "position": {"lon": -1.57492461719297, "lat": 47.2143336608893}, "banking": "False", "bonus": "False", "status": "OPEN", "contract_name": "nantes", "bike_stands": 15, "available_bike_stands": 4, "available_bikes": 11, "last_update": "2025-12-04T08:14:12+00:00"}, {"number": 110, "name": "110-AUDITORIUM", "address": "1, avenue de Bretagne - REZ\u00c9", "position": {"lon": -1.554025, "lat": 47.185402}, "banking": "False", "bonus": "False", "status": "OPEN", "contract_name": "nantes", "bike_stands": 20, "available_bike_stands": 18, "available_bikes": 2, "last_update": "2025-12-04T08:15:15+00:00"}, {"number": 83, "name": "083-MILLERAND", "address": "9, boulevard Alexandre Millerand - 28, boulevard Georges Pompidou", "position": {"lon": -1.53018043595997, "lat": 47.2081996450388}, "banking": "False", "bonus": "False", "status": "OPEN", "contract_name": "nantes", "bike_stands": 14, "available_bike_stands": 2, "available_bikes": 12, "last_update": "2025-12-04T08:13:47+00:00"}, {"number": 123, "name": "123-TRARIEUX", "address": "3, place Gabriel Trarieux", "position": {"lon": -1.522334, "lat": 47.225957}, "banking": "False", "bonus": "False", "status": "OPEN", "contract_name": "nantes", "bike_stands": 20, "available_bike_stands": 18, "available_bikes": 2, "last_update": "2025-12-04T08:14:13+00:00"}, {"number": 18, "name": "018-VIARME", "address": "23, place Viarme", "position": {"lon": -1.56330836686976, "lat": 47.2214293389855}, "banking": "False", "bonus": "False", "status": "OPEN", "contract_name": "nantes", "bike_stands": 14, "available_bike_stands": 3, "available_bikes": 11, "last_update": "2025-12-04T08:14:47+00:00"}, {"number": 118, "name": "118-\u00c9GALIT\u00c9", "address": "Boulevard L\u00e9on Jouhaux", "position": {"lon": -1.589002, "lat": 47.209661}, "banking": "False", "bonus": "False", "status": "OPEN", "contract_name": "nantes", "bike_stands": 14, "available_bike_stands": 7, "available_bikes": 7, "last_update": "2025-12-04T08:12:18+00:00"}, {"number": 32, "name": "032-FOCH", "address": "Place Foch", "position": {"lon": -1.550185, "lat": 47.2192484}, "banking": "True", "bonus": "False", "status": "OPEN", "contract_name": "nantes", "bike_stands": 14, "available_bike_stands": 14, "available_bikes": 0, "last_update": "2025-12-04T08:12:18+00:00"}, {"number": 17, "name": "017-SAINTE \u00c9LISABETH", "address": "4, place Sainte Elisabeth", "position": {"lon": -1.56157014764171, "lat": 47.2192139526135}, "banking": "False", "bonus": "False", "status": "OPEN", "contract_name": "nantes", "bike_stands": 14, "available_bike_stands": 3, "available_bikes": 11, "last_update": "2025-12-04T08:12:39+00:00"}, {"number": 21, "name": "021-TALENSAC SUD", "address": "6, rue Talensac", "position": {"lon": -1.55647633932779, "lat": 47.2211433291291}, "banking": "False", "bonus": "False", "status": "OPEN", "contract_name": "nantes", "bike_stands": 16, "available_bike_stands": 9, "available_bikes": 7, "last_update": "2025-12-04T08:11:55+00:00"}, {"number": 12, "name": "012-DELORME", "address": "1, boulevard Gabriel Guist'Hau - Place Delorme", "position": {"lon": -1.56390067346586, "lat": 47.2151581886857}, "banking": "True", "bonus": "False", "status": "OPEN", "contract_name": "nantes", "bike_stands": 20, "available_bike_stands": 20, "available_bikes": 0, "last_update": "2025-12-04T08:13:03+00:00"}, {"number": 11, "name": "011-CALVAIRE", "address": "8, rue du Calvaire - Place des Volontaires de la D\u00e9fense Passive", "position": {"lon": -1.56067528370012, "lat": 47.2155789424271}, "banking": "False", "bonus": "False", "status": "OPEN", "contract_name": "nantes", "bike_stands": 15, "available_bike_stands": 10, "available_bikes": 5, "last_update": "2025-12-04T08:12:11+00:00"}, {"number": 88, "name": "088-MELLINET", "address": "1, boulevard Allard - Place G\u00e9n\u00e9ral Mellinet", "position": {"lon": -1.57717541432178, "lat": 47.2115010701178}, "banking": "False", "bonus": "False", "status": "OPEN", "contract_name": "nantes", "bike_stands": 15, "available_bike_stands": 8, "available_bikes": 7, "last_update": "2025-12-04T08:13:27+00:00"}, {"number": 96, "name": "096-TORTI\u00c8RE", "address": "Pont de la Torti\u00e8re - boulevard Eug\u00e8ne Orieux", "position": {"lon": -1.54922176680989, "lat": 47.2353352222086}, "banking": "True", "bonus": "False", "status": "OPEN", "contract_name": "nantes", "bike_stands": 16, "available_bike_stands": 1, "available_bikes": 15, "last_update": "2025-12-04T08:11:39+00:00"}]}